City,Cloudiness,Country,Date,Humidity,Lat,Lng,Max Temp,Wind Speed
Meulaboh,24,ID,1547321173,100,4.14,96.13,78.02,2.48
Avera,90,US,1547318100,63,33.19,-82.53,51.8,8.05
Itarema,44,BR,1547321173,91,-2.92,-39.92,80.63,5.17
Ushuaia,75,AR,1547316900,93,-54.81,-68.31,42.8,38.03
Mansa,0,IN,1547319600,55,23.43,72.66,60.8,2.71
Kiunga,64,PG,1547321174,98,-6.12,141.3,73.74,2.15
Albany,20,US,1547316960,29,42.65,-73.75,24.98,8.05
Lorengau,44,PG,1547321175,100,-2.02,147.27,81.89,15.79
Hermanus,0,ZA,1547319034,50,-34.42,19.24,64.02,10.2
Mataura,100,NZ,1547319133,89,-46.19,168.86,44.22,3.15
Kapaa,1,US,1547315760,84,22.08,-159.32,68.0,9.17
Hasaki,90,JP,1547317800,86,35.73,140.83,39.2,8.05
Santiago del Estero,8,AR,1547321176,77,-27.8,-64.26,83.55,5.84
Rikitea,88,PF,1547319192,99,-23.12,-134.97,79.14,14.56
Alofi,0,NU,1547316000,78,-19.06,-169.92,77.0,8.05
Ribeira Grande,20,PT,1547316000,67,38.52,-28.7,62.6,24.16
Busselton,0,AU,1547319522,100,-33.64,115.35,64.47,18.48
Bluff,0,AU,1547319212,84,-23.58,149.07,69.15,7.18
Mount Isa,0,AU,1547319600,32,-20.73,139.49,84.2,6.93
Castro,75,CL,1547319600,62,-42.48,-73.76,59.0,9.17
Geraldton,5,CA,1547319600,45,49.72,-86.95,3.2,3.38
Riyadh,0,SA,1547319600,26,24.63,46.72,57.2,4.7
Isabela,36,PH,1547321178,96,10.2,122.99,72.08,2.82
Bredasdorp,0,ZA,1547316000,40,-34.53,20.04,69.8,12.75
Koslan,80,RU,1547321179,72,63.46,48.9,17.0,9.53
Amahai,8,ID,1547321179,100,-3.31,129.0,83.37,8.41
Nanortalik,92,GL,1547321179,92,60.14,-45.24,30.54,15.9
Chapais,90,CA,1547319600,77,49.78,-74.86,-0.41,10.29
Dikson,48,RU,1547319242,100,73.51,80.55,-17.03,31.79
Jamestown,0,AU,1547319024,41,-33.21,138.6,64.74,9.98
Los Llanos de Aridane,0,ES,1547319600,63,28.66,-17.92,64.4,5.82
Akureyri,90,IS,1547319600,94,65.68,-18.09,32.0,8.05
Fukue,20,JP,1547319600,69,35.03,136.69,39.2,6.93
Mitsamiouli,20,KM,1547316000,83,-11.38,43.28,80.6,3.36
Teluknaga,90,ID,1547319600,88,-6.1,106.64,78.8,4.7
Marica,20,BR,1547319600,70,-22.92,-42.82,89.6,14.99
Camacha,40,PT,1547317800,72,33.08,-16.33,64.4,16.11
Ancud,40,CL,1547316000,77,-41.87,-73.83,59.0,9.17
Coquimbo,0,CL,1547319600,56,-29.95,-71.34,69.8,14.99
Broome,75,GB,1547319420,87,52.47,1.45,46.4,14.99
Belaya Gora,44,RU,1547321183,0,68.54,146.19,-42.99,2.93
Yellowknife,75,CA,1547316000,83,62.45,-114.38,-7.61,10.29
Meridian,90,US,1547319360,89,32.36,-88.7,53.96,12.75
Moree,0,AU,1547319600,47,-29.46,149.84,75.2,8.05
Komsomolskiy,64,RU,1547321184,78,67.55,63.78,4.04,17.81
Victoria,75,BN,1547319600,88,5.28,115.24,80.6,2.24
Kendari,88,ID,1547321185,89,-3.99,122.52,76.58,2.48
Lompoc,75,US,1547318460,76,34.64,-120.46,57.92,6.93
Punta Arenas,75,CL,1547316000,43,-53.16,-70.91,51.8,39.15
Saldanha,0,PT,1547321186,92,41.42,-6.55,35.63,4.61
Vaini,0,IN,1547319245,87,15.34,74.49,62.72,2.15
Codrington,12,AU,1547320020,93,-28.95,153.24,64.4,2.37
Torres,92,BR,1547321187,100,-29.34,-49.73,74.19,5.5
Siuri,0,IN,1547321187,79,23.91,87.53,51.02,2.71
Batticaloa,92,LK,1547321187,100,7.71,81.69,73.52,3.15
Fare,92,PF,1547321188,100,-16.7,-151.02,82.11,21.61
Provideniya,0,RU,1547321188,100,64.42,-173.23,-11.45,15.57
Lavrentiya,12,RU,1547321188,90,65.58,-170.99,-10.55,24.52
Verkhoyansk,8,RU,1547321188,0,67.55,133.39,-48.48,2.59
Souillac,90,FR,1547319600,100,45.6,-0.6,42.8,5.82
Nikolskoye,75,RU,1547319600,92,59.7,30.79,21.2,13.42
Avarua,40,CK,1547316000,83,-21.21,-159.78,80.6,1.12
Georgetown,75,GY,1547319600,69,6.8,-58.16,84.2,13.87
Farafangana,64,MG,1547321190,100,-22.82,47.83,80.04,13.44
Port-Cartier,75,CA,1547316000,62,50.03,-66.88,23.0,8.05
Tuktoyaktuk,75,CA,1547316000,83,69.44,-133.03,-13.01,9.17
Lebu,0,ET,1547319600,24,8.96,38.73,55.4,3.36
Hilo,20,US,1547315580,86,19.71,-155.08,69.08,3.36
Gannan,0,CN,1547321191,70,47.92,123.49,1.47,8.63
Kudahuvadhoo,88,MV,1547321192,100,2.67,72.89,80.27,5.95
Upernavik,32,GL,1547319059,100,72.79,-56.15,-5.6,14.23
Karachi,0,PK,1547319300,48,24.87,67.03,64.4,4.7
Putina,75,PE,1547319600,39,-14.91,-69.87,62.6,4.7
Kahului,40,US,1547315760,84,20.89,-156.47,69.98,4.7
Jijiga,0,ET,1547321193,64,9.35,42.8,47.1,3.49
New Norfolk,20,AU,1547317800,87,-42.78,147.06,50.0,8.05
Benjamin Constant,75,BR,1547319600,78,-4.38,-70.03,82.4,4.7
Keta,20,GH,1547316000,83,5.92,0.99,84.2,10.29
Dingle,68,PH,1547321194,94,11.0,122.67,74.69,10.54
Bugiri,0,UG,1547321194,58,0.57,33.75,73.02,1.7
Bemidji,90,US,1547320500,91,47.48,-94.89,26.06,5.82
Chokurdakh,80,RU,1547321195,34,70.62,147.9,-22.7,5.73
Bontang,44,ID,1547321195,100,0.12,117.47,81.57,11.32
Ornskoldsvik,12,SE,1547319000,79,63.29,18.72,21.2,6.93
Atherton,90,GB,1547319000,81,53.52,-2.49,53.6,19.46
Barrow,24,AR,1547319174,68,-38.31,-60.23,83.64,13.56
Arraial do Cabo,20,BR,1547316000,70,-22.97,-42.02,89.6,17.22
Butaritari,68,KI,1547319028,100,3.07,172.79,82.88,10.98
Klaksvik,92,FO,1547317200,100,62.23,-6.59,42.8,12.75
Fairview,75,US,1547320500,30,40.81,-74.0,35.96,3.71
Paita,0,PE,1547319600,290,-5.09,-81.11,62.6,16.11
Zapolyarnyy,75,RU,1547319000,100,69.43,30.82,30.2,4.7
Vila,0,IT,1547319000,50,45.18,8.4,41.0,3.36
Lasa,20,CY,1547319600,76,34.92,32.53,55.4,9.17
Grammenitsa,40,GR,1547319000,65,39.18,20.98,46.4,5.82
Half Moon Bay,20,US,1547319360,66,37.46,-122.43,60.8,3.36
Ahipara,0,NZ,1547319506,100,-35.17,173.16,59.79,4.61
Zheleznodorozhnyy,90,RU,1547319600,85,55.75,38.0,15.8,6.71
Pisco,20,PE,1547319600,30,-13.71,-76.2,71.6,26.4
Batagay-Alyta,24,RU,1547321201,50,67.8,130.41,-31.83,3.71
Puerto Escondido,20,MX,1547318700,69,15.86,-97.07,82.4,9.17
Seoul,0,KR,1547319600,85,37.57,126.98,26.6,3.36
Qaanaaq,0,GL,1547319280,67,77.48,-69.36,-23.15,6.96
Isangel,12,VU,1547321202,100,-19.55,169.27,76.89,4.83
Sobolevo,88,RU,1547321202,92,54.43,31.9,25.95,12.44
Boca do Acre,64,BR,1547321202,93,-8.76,-67.39,78.69,1.92
Kargasok,12,RU,1547321203,35,59.06,80.87,-23.15,3.71
Abbeville,0,FR,1547319600,87,50.11,1.83,48.2,11.41
Beloha,80,MG,1547321203,95,-25.17,45.06,74.69,3.04
Mokrousovo,76,RU,1547321204,80,55.81,66.77,10.34,17.81
Samana,90,EC,1547319600,100,0.12,-76.97,71.6,3.36
Rio Cuarto,40,AR,1547319600,54,-33.13,-64.35,80.6,14.99
Lincoln,90,US,1547320500,94,40.8,-96.67,32.0,19.46
Cidreira,80,BR,1547319353,89,-30.17,-50.22,77.75,14.79
Hervey Bay,76,AU,1547319600,88,-25.3,152.85,68.0,6.93
Touros,75,BR,1547319600,74,-5.2,-35.46,82.4,13.87
Chunskiy,36,RU,1547321206,66,56.08,99.63,2.42,6.29
Ostrovnoy,88,RU,1547321206,93,68.05,39.51,19.47,4.83
Tvoroyri,92,FO,1547319000,93,61.56,-6.81,42.8,10.29
Saint-Louis,75,CH,1547319600,75,47.59,7.56,41.0,11.41
Faya,0,SA,1547319600,72,18.39,42.45,59.0,2.71
Tiksi,44,RU,1547321208,38,71.64,128.87,-25.13,11.1
Varhaug,75,NO,1547319000,87,58.61,5.65,44.6,14.99
Hereford,68,GB,1547321209,89,52.06,-2.72,46.25,17.69
Vardo,90,US,1547317200,44,39.62,-77.74,35.6,5.82
Salalah,0,OM,1547319000,24,17.01,54.1,78.8,9.17
Carnarvon,0,ZA,1547319236,35,-30.97,22.13,72.08,10.87
Cayenne,40,GF,1547317800,66,4.94,-52.33,84.2,12.75
Nevsehir,75,TR,1547319000,66,38.62,34.71,32.0,12.75
Makakilo City,75,US,1547319420,71,21.35,-158.09,75.92,3.36
Port Alfred,0,ZA,1547319307,82,-33.59,26.89,69.96,4.38
Steinkjer,75,NO,1547319000,95,64.02,11.49,33.8,4.7
Jumla,88,NP,1547321211,97,29.28,82.18,21.23,1.7
Puerto Ayora,20,EC,1547316000,65,-0.74,-90.35,82.4,6.93
Beipiao,0,CN,1547321212,53,41.8,120.76,19.25,9.64
Herat,0,AF,1547319300,80,34.35,62.22,35.6,2.24
Jinxiang,0,CN,1547321213,75,35.07,116.31,25.32,2.93
East London,75,ZA,1547316000,73,-33.02,27.91,69.8,8.05
Kloulklubed,90,PW,1547319000,94,7.04,134.26,75.2,8.05
Hobart,20,AU,1547317800,87,-42.88,147.33,50.0,8.05
Sioux Lookout,75,CA,1547319600,66,50.1,-91.92,14.0,5.82
Palmer,20,AU,1547319600,67,-34.85,139.16,60.8,14.99
Raudeberg,92,NO,1547319000,93,61.99,5.14,37.4,8.05
Mar del Plata,0,AR,1547319037,31,-46.43,-67.52,68.7,13.78
Ust-Nera,20,RU,1547321215,0,64.57,143.24,-41.73,1.92
Umm Kaddadah,8,SD,1547321215,47,13.6,26.69,65.55,6.62
Leningradskiy,8,RU,1547321216,100,69.38,178.42,-18.65,8.52
Dicabisagan,76,PH,1547321216,100,17.08,122.42,72.21,7.85
Atuona,92,PF,1547319235,100,-9.8,-139.03,79.86,16.24
Joshimath,76,IN,1547321217,92,30.57,79.57,8.0,1.36
Luderitz,32,NA,1547321217,87,-26.65,15.16,64.07,6.17
Kaitangata,68,NZ,1547321218,84,-46.28,169.85,48.23,3.83
North Bend,20,US,1547319360,68,43.41,-124.22,53.06,6.93
Luba,0,PH,1547321218,81,17.32,120.7,63.89,2.59
Auki,0,NG,1547321219,24,12.18,6.51,79.55,6.17
Tabanan,20,ID,1547319600,100,-8.54,115.13,78.8,0.69
Vanimo,64,PG,1547321219,100,-2.67,141.3,80.04,13.78
Mogadishu,0,SO,1547321220,99,2.04,45.34,79.59,24.07
Saint-Pierre,90,FR,1547319600,100,48.95,4.24,46.4,18.34
Mbandaka,8,CD,1547321221,91,0.05,18.26,77.57,2.15
Sjovegan,68,NO,1547319000,100,68.87,17.85,21.2,21.92
Port Elizabeth,1,US,1547315760,31,39.31,-74.98,33.08,4.7
Fortuna,0,ES,1547319600,68,38.18,-1.13,42.8,5.82
Cape Town,75,ZA,1547316000,60,-33.93,18.42,68.0,13.87
Viesca,5,MX,1547318400,52,25.34,-102.81,66.2,3.94
Simao,0,CN,1547321222,85,22.76,100.79,46.07,1.81
Nalut,0,LY,1547321223,72,31.86,10.98,38.82,6.06
La Asuncion,76,EC,1547321223,97,-1.64,-78.74,53.63,1.92
Tasiilaq,75,GL,1547315400,67,65.61,-37.64,17.6,16.11
Maragogi,80,BR,1547321224,95,-9.01,-35.22,77.84,10.2
Zhezkazgan,56,KZ,1547321224,76,47.8,67.71,4.67,7.96
Qasigiannguit,40,GL,1547319000,48,68.82,-51.19,-5.81,8.05
Walvis Bay,0,NA,1547316000,72,-22.95,14.51,68.0,14.99
Pevek,0,RU,1547321035,58,69.7,170.27,-19.73,6.4
Clyde River,20,CA,1547316000,73,70.47,-68.59,-29.21,6.93
Shingu,8,JP,1547320931,100,33.72,135.99,47.82,8.41
Kenai,40,US,1547319360,72,60.55,-151.26,3.92,9.17
Ternate,75,PH,1547319600,74,14.29,120.72,80.6,4.7
Lata,92,IN,1547320167,100,30.78,78.62,32.75,1.48
Ponta do Sol,68,BR,1547319026,66,-20.63,-46.0,83.33,3.83
Prieska,0,ZA,1547321227,17,-29.67,22.74,78.02,8.75
Bambous Virieux,40,MU,1547319600,74,-20.34,57.76,80.6,12.75
Tazmalt,75,DZ,1547319600,87,36.39,4.4,46.4,11.41
Husavik,68,CA,1547321054,89,50.56,-96.99,15.87,6.62
Broken Hill,0,AU,1547319600,29,-31.97,141.45,75.2,21.92
Aklavik,40,CA,1547316360,68,68.22,-135.01,-20.21,9.17
Porto Walter,88,BR,1547321228,96,-8.27,-72.74,74.01,3.04
Saint George,75,GR,1547315400,69,39.45,22.34,37.4,0.58
Champerico,5,MX,1547318400,45,16.38,-93.6,84.2,3.04
Grindavik,90,IS,1547319600,100,63.84,-22.43,33.8,4.7
Tumsar,0,IN,1547321229,82,21.38,79.75,60.6,6.62
Altay,20,CN,1547321230,81,47.83,88.13,1.7,2.26
Millau,90,FR,1547319600,93,44.1,3.08,37.4,14.99
Sokoni,56,CD,1547321230,95,-12.89,28.78,69.69,3.94
Saskylakh,0,RU,1547321230,0,71.97,114.09,-53.16,4.72
Richards Bay,0,ZA,1547321231,83,-28.77,32.06,72.62,4.94
Collie,24,AU,1547321231,45,-33.36,116.15,72.39,10.65
Mount Gambier,0,AU,1547316000,87,-37.83,140.78,53.6,10.29
Kruisfontein,0,ZA,1547319653,82,-34.0,24.73,65.6,11.43
Atar,0,MR,1547319210,9,20.52,-13.05,80.45,4.72
Cabo San Lucas,5,MX,1547318520,64,22.89,-109.91,78.8,5.82
Cibeureum,20,ID,1547321232,96,-6.73,106.95,69.24,2.37
Bryansk,76,RU,1547321232,83,53.24,34.37,15.51,10.31
Vila Velha,20,BR,1547319600,78,-3.71,-38.6,82.4,8.05
Yuci,0,CN,1547319600,72,37.68,112.73,12.2,2.24
Ordzhonikidze,68,UA,1547321233,100,44.96,35.36,38.33,5.17
Yaan,12,NG,1547321233,26,7.38,8.57,86.75,6.4
Cockburn Town,68,TC,1547321233,100,21.46,-71.14,78.24,18.25
Kavieng,64,PG,1547321234,100,-2.57,150.8,82.02,11.65
Dunedin,56,NZ,1547319249,96,-45.87,170.5,44.0,3.49
Orchard Homes,90,US,1547319180,91,46.86,-114.05,21.92,2.26
Gibsons,40,CA,1547319600,75,49.4,-123.51,46.4,6.62
Necochea,0,AR,1547321235,67,-38.55,-58.74,81.89,12.77
Jerantut,8,MY,1547321235,99,3.94,102.37,68.93,2.04
Khatanga,48,RU,1547319283,46,71.98,102.47,-28.64,13.44
Soderhamn,20,SE,1547321040,82,61.3,17.06,24.47,2.48
Halifax,75,CA,1547319600,66,44.65,-63.58,14.0,13.87
Yulara,0,AU,1547316000,25,-25.24,130.99,86.0,9.17
Thompson,75,CA,1547319600,78,55.74,-97.86,8.6,11.41
Yeppoon,12,AU,1547319600,78,-23.13,150.74,71.6,6.93
Pontes e Lacerda,56,BR,1547321237,85,-15.23,-59.33,85.4,3.94
Baracoa,92,CU,1547321238,98,20.35,-74.5,77.7,12.21
Puerto del Rosario,20,ES,1547319600,77,28.5,-13.86,64.4,6.93
Hithadhoo,12,MV,1547319198,100,-0.6,73.08,82.02,2.59
Radishchevo,80,RU,1547321238,94,52.85,47.87,29.82,11.99
Auburn,75,US,1547320500,65,32.61,-85.48,56.48,7.4
Saint Anthony,1,US,1547319360,76,43.97,-111.68,17.06,3.36
Constitucion,5,MX,1547318700,38,23.99,-104.67,59.0,4.16
Havelock,90,US,1547319480,62,34.88,-76.9,46.04,9.17
Kon Tum,32,VN,1547321240,98,14.36,108.0,60.2,2.37
Waingapu,12,ID,1547321240,99,-9.65,120.26,73.79,2.93
Chipinge,8,ZW,1547321240,61,-20.19,32.62,81.12,4.38
Chuy,76,UY,1547319304,87,-33.69,-53.46,75.0,13.67
Pathein,56,MM,1547321241,86,16.78,94.73,72.66,6.73
Dwarka,40,IN,1547319600,81,28.58,77.04,51.8,2.24
Tashara,24,RU,1547321241,42,55.52,83.51,-13.43,3.04
Mahibadhoo,88,MV,1547321242,100,3.78,72.97,81.84,12.66
Rabo de Peixe,75,PT,1547317800,82,37.8,-25.58,60.8,13.87
Luoyang,0,CN,1547321242,65,34.66,112.42,21.36,4.94
Pundaguitan,68,PH,1547321243,100,6.37,126.17,79.64,10.98
Terney,0,RU,1547321243,100,45.05,136.61,17.63,7.07
Lagoa,0,PT,1547316000,62,37.14,-8.45,53.6,6.93
Evans,1,US,1547320500,52,40.38,-104.69,42.26,5.17
Bismarck,90,US,1547320500,100,46.81,-100.78,17.06,10.29
Hofn,92,IS,1547319551,100,64.25,-15.21,35.31,10.76
Katsuura,40,JP,1547316000,86,33.93,134.5,39.2,9.17
Lazurne,88,UA,1547321244,92,46.77,34.99,26.0,7.74
Pelym,64,RU,1547321245,79,61.01,62.0,8.4,7.18
Tilichiki,8,RU,1547321245,69,60.47,166.1,-9.96,3.94
Dondo,20,MZ,1547319600,83,-19.62,34.74,84.2,6.85
Eau Claire,90,US,1547320500,66,44.81,-91.5,30.92,10.29
Invermere,48,CA,1547321246,78,50.51,-116.03,16.1,0.58
Along,0,IN,1547321246,49,28.17,94.8,48.36,2.59
Kodiak,90,US,1547318100,100,39.95,-94.76,32.0,12.75
Sitka,76,US,1547319669,89,37.17,-99.65,34.95,18.03
Saint-Joseph,0,FR,1547319600,68,43.56,6.97,46.4,4.7
Mokhsogollokh,12,RU,1547321248,0,61.4,128.95,-28.82,2.37
Glace Bay,90,CA,1547319600,72,46.2,-59.96,14.0,12.75
Kawalu,64,ID,1547321248,99,-7.38,108.21,68.34,2.15
Namibe,0,AO,1547321248,100,-15.19,12.15,75.14,11.54
Minab,36,IR,1547319600,18,27.15,57.07,64.4,2.24
Mahebourg,40,MU,1547316000,78,-20.41,57.7,80.6,14.99
Iqaluit,40,CA,1547318640,67,63.75,-68.52,-23.81,24.16
Nhulunbuy,75,AU,1547319600,94,-12.18,136.78,80.6,3.36
Homer,90,US,1547319180,84,59.64,-151.54,21.02,3.36
Torbay,75,CA,1547316000,93,47.66,-52.73,32.0,12.75
Bagdarin,24,RU,1547321251,25,54.44,113.59,-20.31,2.59
Hambantota,40,LK,1547316600,100,6.12,81.12,77.0,9.17
Havre-Saint-Pierre,90,CA,1547319600,73,50.23,-63.6,26.6,6.93
Ilulissat,75,GL,1547315400,48,69.22,-51.1,-5.81,11.41
Letterkenny,90,IE,1547317800,93,54.95,-7.73,50.0,24.16
Chernyshevskiy,56,RU,1547321252,71,63.01,112.47,-10.86,5.73
Bilibino,12,RU,1547321253,0,68.06,166.44,-28.64,2.26
Pochutla,90,MX,1547315520,66,15.74,-96.47,84.2,3.94
Ben Tre,80,VN,1547321253,70,10.24,106.37,81.3,11.77
Acapulco,5,MX,1547318640,70,16.86,-99.88,84.2,4.7
Hay River,75,CA,1547319600,76,60.82,-115.79,-4.01,9.17
Hoquiam,90,US,1547319180,73,46.98,-123.89,48.02,10.29
Pimentel,44,BR,1547321255,65,-3.7,-45.5,88.19,4.61
Ningxiang,90,CN,1547319600,100,28.28,112.55,39.2,6.71
Carutapera,56,BR,1547321255,88,-1.2,-46.02,81.8,7.4
Glenwood Springs,40,US,1547319360,77,39.55,-107.33,32.0,2.59
Sinnamary,76,GF,1547321256,92,5.38,-52.96,79.86,10.2
Pangnirtung,40,CA,1547316000,67,66.15,-65.72,-27.41,5.82
Lake Havasu City,1,US,1547319360,44,34.47,-114.34,57.2,10.29
Abnub,0,EG,1547319600,62,27.27,31.15,51.8,10.29
Breves,64,BR,1547321257,86,-1.68,-50.48,81.53,3.6
Estelle,90,US,1547320500,65,32.87,-97.01,46.4,20.8
Dawlatabad,0,AF,1547321257,84,36.41,64.91,30.77,7.74
Faanui,80,PF,1547319612,100,-16.48,-151.75,82.34,22.62
Visby,48,SE,1547319000,92,57.64,18.3,28.4,5.82
Aljezur,0,PT,1547321258,100,37.31,-8.8,56.24,7.18
Bambanglipuro,68,ID,1547321258,100,-7.95,110.28,74.46,3.38
Baltoji Voke,90,LT,1547319000,100,54.6,25.2,30.2,5.82
Kavaratti,0,IN,1547321124,100,10.57,72.64,81.84,4.94
Grand Gaube,40,MU,1547319600,74,-20.01,57.66,80.6,12.75
Antsohihy,92,MG,1547321260,99,-14.88,47.99,74.19,4.16
Aksha,0,RU,1547321260,37,50.28,113.29,-12.89,3.04
Plettenberg Bay,0,ZA,1547321260,100,-34.05,23.37,65.87,9.31
Honiara,64,SB,1547321026,100,-9.43,159.96,74.33,2.59
Biak,20,ID,1547321261,100,-0.91,122.88,76.67,1.7
Bon Accord,1,CA,1547319600,79,53.84,-113.41,23.0,3.36
Georgiyevka,76,RU,1547321261,82,52.25,40.45,11.19,11.21
Saint-Philippe,1,CA,1547318100,49,45.36,-73.48,12.38,8.97
Campestre,24,BR,1547321262,79,-21.71,-46.25,82.34,4.16
Chicama,40,PE,1547319600,78,-7.84,-79.15,77.0,13.87
Fairbanks,0,US,1547319780,64,64.84,-147.72,-38.03,4.16
Vestmannaeyjar,90,IS,1547316600,100,63.44,-20.27,37.4,5.82
Kaberamaido,0,UG,1547321263,35,1.76,33.16,76.85,15.68
Tessalit,48,ML,1547321263,15,20.2,1.01,62.09,7.74
Severo-Kurilsk,80,RU,1547321263,99,50.68,156.12,32.07,17.47
Burns Lake,88,CA,1547321264,88,54.23,-125.76,30.0,2.37
Ayagoz,24,KZ,1547321264,56,47.96,80.43,5.3,6.4
Bubaque,0,GW,1547321264,83,11.28,-15.83,84.72,6.62
Ochamchira,88,GE,1547321264,100,42.71,41.47,47.91,5.28
Ojinaga,1,US,1547319300,42,29.56,-104.41,58.64,9.17
Inhambane,40,MZ,1547319600,89,-23.87,35.38,84.2,13.87
Marataizes,0,BR,1547321266,81,-21.04,-40.82,82.52,16.46
San Patricio,68,PY,1547321266,100,-26.98,-56.83,73.65,4.38
Mizdah,0,LY,1547321266,54,31.45,12.98,41.84,17.02
Omboue,64,GA,1547321266,100,-1.57,9.26,79.14,6.96
Luanda,75,AO,1547319600,78,-8.83,13.24,80.6,6.93
Temascalcingo,8,MX,1547321267,56,19.92,-100.0,61.28,3.04
Road Town,40,VG,1547319900,69,18.42,-64.62,82.94,8.05
Sao Filipe,0,CV,1547321268,88,14.9,-24.5,74.64,8.63
Obo,8,CF,1547321268,55,5.39,26.49,76.4,4.38
Saumur,90,FR,1547319600,100,47.26,-0.08,46.4,10.29
Deputatskiy,44,RU,1547321269,0,69.3,139.9,-34.26,2.71
Karasjok,56,NO,1547319000,74,69.47,25.52,32.0,31.09
Gamba,0,CN,1547321269,37,28.28,88.52,-9.29,6.96
Naze,12,NG,1547316000,62,5.43,7.07,87.8,4.7
Aswan,8,EG,1547320836,91,24.09,32.9,56.33,2.71
Mehamn,88,NO,1547319538,90,71.03,27.85,31.71,14.45
Langfang,0,CN,1547319600,78,39.51,116.7,17.6,2.24
Tomatlan,0,MX,1547321270,66,19.93,-105.25,80.72,3.15
Sumisip,68,PH,1547321271,97,12.51,124.37,77.79,11.65
Isla Mujeres,75,MX,1547318460,54,21.23,-86.73,80.6,6.93
Zhuhai,0,CN,1547319600,77,40.71,112.04,5.0,2.24
College,0,US,1547319780,64,64.86,-147.8,-38.03,4.16
Nosy Varika,36,MG,1547321272,100,-20.58,48.53,76.94,5.73
Santa Luzia,75,BR,1547319600,39,-19.77,-43.85,86.0,9.17
Novyy Urengoy,80,RU,1547321236,70,66.08,76.63,-10.01,20.71
Moerai,92,PF,1547321273,100,-22.43,-151.33,76.49,22.73
Griffith,48,AU,1547319600,50,-34.29,146.06,80.6,4.7
Trat,20,TH,1547321274,100,12.25,102.51,80.22,2.93
Milkovo,32,BG,1547319600,47,41.53,24.68,35.6,17.22
Tenkodogo,12,BF,1547321274,24,11.78,-0.37,84.54,6.73
Oranjemund,20,ZA,1547321275,92,-28.55,16.43,65.37,3.38
Rampura,0,IN,1547321275,100,24.47,75.44,55.74,3.6
Tsumeb,0,NA,1547321275,20,-19.25,17.72,85.17,9.98
Osa,88,RU,1547320957,87,57.28,55.46,22.8,9.98
Qianan,0,CN,1547321276,59,44.99,124.06,5.48,3.15
Sampit,56,ID,1547321276,95,-2.54,112.95,75.9,2.82
Bathsheba,20,BB,1547316000,58,13.22,-59.52,82.4,16.11
Boyolangu,76,ID,1547321277,99,-8.09,111.9,71.54,2.59
Campina Verde,12,BR,1547321277,78,-19.54,-49.49,87.38,5.61
Muyezerskiy,76,RU,1547321277,76,63.93,31.65,28.52,8.75
San Cristobal,40,EC,1547316000,46,-0.39,-78.55,71.6,12.75
Gander,75,CA,1547320500,73,48.95,-54.61,24.8,12.75
Innisfail,75,CA,1547319600,79,52.02,-113.95,24.8,2.24
Cherkessk,76,RU,1547321278,86,44.23,42.06,27.12,2.71
Semey,8,KZ,1547321279,58,50.41,80.25,-6.23,5.95
Baudh,0,IN,1547321279,81,20.84,84.32,53.76,2.37
Ullapool,92,GB,1547321279,96,57.9,-5.16,48.09,24.74
Port Lincoln,20,AU,1547321022,98,-34.72,135.86,62.9,13.22
Zdvinsk,64,RU,1547321280,74,54.7,78.67,0.8,8.97
Forbes,0,AU,1547321280,72,-33.38,148.01,66.95,3.83
Arlit,68,NE,1547319696,45,18.74,7.39,63.98,5.17
Port Hawkesbury,90,CA,1547319600,61,45.62,-61.36,15.8,11.41
Palauig,0,PH,1547321281,100,15.44,119.9,69.74,3.71
Te Anau,80,NZ,1547320960,60,-45.41,167.72,47.37,6.96
Brokopondo,20,SR,1547319600,55,5.06,-54.98,86.0,12.75
Galle,1,US,1547319360,50,29.74,-97.91,66.2,19.46
Guerrero Negro,48,MX,1547319069,90,27.97,-114.04,58.62,3.94
Paamiut,88,GL,1547321282,91,61.99,-49.67,33.83,22.84
Yar-Sale,88,RU,1547321283,85,66.83,70.83,2.69,21.27
Surt,92,LY,1547321283,100,31.21,16.59,53.45,29.1
Sadiqabad,8,PK,1547321283,90,28.31,70.13,51.6,2.93
Bitung,40,ID,1547319600,100,1.44,125.19,75.2,2.24
Clarence Town,0,AU,1547319600,93,-32.59,151.78,64.4,1.48
Nouadhibou,0,MR,1547316000,8,20.93,-17.03,80.6,4.7
Saint-Francois,90,FR,1547319600,93,46.42,3.91,41.0,6.93
Calvillo,40,MX,1547319480,52,21.85,-102.72,64.4,6.93
Rocha,36,UY,1547321285,62,-34.48,-54.34,78.87,11.21
Morehead,90,US,1547320500,80,38.18,-83.43,35.6,5.82
Gizo,0,IL,1547319000,76,31.8,34.94,55.4,5.82
Benguela,0,AO,1547321050,96,-12.58,13.4,78.92,7.52
Brae,92,GB,1547319000,87,60.4,-1.35,46.4,13.87
Adeje,20,NG,1547321287,54,5.68,5.76,88.73,2.71
Airai,20,TL,1547319766,87,-8.93,125.41,68.3,1.92
Nizhniy Baskunchak,0,RU,1547321287,85,48.22,46.83,25.19,11.32
Rio Grande,75,BR,1547319600,94,-32.03,-52.1,71.6,11.41
Dalvik,75,SE,1547319000,100,57.79,14.13,28.4,2.71
Puerto Cabezas,40,NI,1547319600,74,14.04,-83.39,84.2,4.7
Edgewater,75,US,1547319960,49,28.99,-80.9,75.92,10.29
Seymour,12,US,1547321288,77,33.59,-99.26,44.54,22.84
Port Keats,56,AU,1547321289,100,-14.25,129.55,79.86,6.62
Floresta,0,BR,1547321289,29,-8.6,-38.57,94.44,8.08
Atyrau,75,KZ,1547319600,94,47.1,51.92,32.0,11.18
Pauini,48,BR,1547321290,92,-7.71,-67.0,80.49,2.37
Sison,0,PH,1547321290,87,16.17,120.51,64.88,2.37
Moose Factory,90,CA,1547316000,83,51.26,-80.61,-5.81,11.41
Mackay,1,CA,1547319600,100,53.65,-115.58,26.6,5.82
Behbahan,64,IR,1547319600,93,30.59,50.24,48.2,0.47
San Andres,92,PH,1547321291,100,13.32,122.68,77.16,17.81
Saurimo,92,AO,1547321029,72,-9.66,20.4,74.82,3.04
Yanam,8,IN,1547321291,82,16.73,82.22,71.18,8.19
Novoseleznevo,76,RU,1547321292,84,55.68,69.21,3.05,13.89
Tocopilla,0,CL,1547319488,78,-22.09,-70.2,69.47,6.73
Cao Bang,92,VN,1547321292,100,22.67,106.25,56.87,1.59
Maniitsoq,32,GL,1547321292,100,65.42,-52.9,7.59,6.4
Fort Smith,90,US,1547320500,92,35.39,-94.42,44.6,4.7
Puerto Narino,75,CO,1547319600,83,-3.77,-70.38,82.4,3.36
Evensk,8,RU,1547321293,100,61.92,159.24,3.5,5.95
Sosnovka,68,RU,1547321294,81,53.23,41.37,9.53,11.77
Abu Zabad,0,SD,1547321294,41,12.35,29.25,72.66,8.41
Yamada,40,JP,1547319600,100,36.58,137.08,32.0,1.12
Santiago,20,CL,1547319600,36,-33.44,-70.65,80.6,9.17
Longyearbyen,20,NO,1547315400,50,78.22,15.63,8.6,19.46
Ngaoundere,8,CM,1547321295,29,7.32,13.58,73.47,8.08
Aykhal,24,RU,1547321295,43,65.95,111.51,-28.37,4.05
Huarmey,12,PE,1547321296,49,-10.07,-78.15,80.85,5.95
Esperance,20,TT,1547316000,55,10.24,-61.45,86.0,12.75
Awjilah,48,LY,1547321296,58,29.14,21.3,55.92,19.82
San Felipe,12,CL,1547320862,69,-32.75,-70.73,66.23,1.25
Port Hedland,0,AU,1547319600,88,-20.31,118.58,82.4,11.41
Opuwo,0,NA,1547321297,19,-18.06,13.84,81.84,11.99
Nantucket,75,US,1547319360,25,41.28,-70.1,30.02,11.41
Sao Joao da Barra,20,BR,1547319600,55,-21.64,-41.05,86.0,14.99
Stawell,0,AU,1547321298,77,-37.06,142.77,54.21,13.0
Taltal,0,CL,1547321298,67,-25.41,-70.49,69.24,5.06
Mujiayingzi,0,CN,1547321298,68,42.12,118.78,8.22,3.83
Waverley,75,AU,1547319600,88,-33.9,151.26,71.6,21.92
Zaragoza,0,ES,1547319600,75,41.65,-0.88,46.4,21.92
Laguna,20,MX,1547318580,44,27.52,-110.01,75.2,3.36
Vila Franca do Campo,75,PT,1547317800,82,37.72,-25.43,60.8,13.87
Praia da Vitoria,40,PT,1547316000,77,38.73,-27.07,60.8,23.29
Kuzhener,88,RU,1547321300,78,56.81,48.92,10.47,5.61
Sterling,90,US,1547320500,80,39.0,-77.4,35.96,4.7
Arambagh,0,IN,1547321300,81,22.88,87.79,54.12,3.15
Kidal,20,ML,1547321300,14,18.44,1.41,67.71,6.73
Atikokan,0,CA,1547321301,62,48.76,-91.62,15.83,4.61
Nome,1,US,1547320500,53,30.04,-94.42,71.06,12.75
Carndonagh,92,IE,1547321301,91,55.25,-7.27,49.8,25.52
Iberia,92,PE,1547321301,73,-11.41,-69.49,80.54,0.81
Nyurba,48,RU,1547321302,76,63.29,118.35,-11.63,6.4
Puerto Leguizamo,76,CO,1547321302,76,-0.19,-74.78,84.81,2.71
Tual,56,ID,1547321302,100,-5.67,132.75,82.11,11.21
Kuliyapitiya,0,LK,1547316600,78,7.47,80.04,77.0,10.29
Bethel,90,US,1547319960,77,60.79,-161.76,-13.01,20.8
Hirara,88,JP,1547321045,100,24.8,125.28,70.82,17.47
Perehonivka,90,UA,1547319600,92,49.98,30.49,24.8,8.95
Wanning,75,AT,1547319000,96,48.64,13.53,39.2,11.41
Norman Wells,40,CA,1547316000,73,65.28,-126.83,-32.81,2.24
Wajid,8,SO,1547321304,40,3.81,43.25,79.05,9.42
Lazaro Cardenas,5,MX,1547318400,35,28.39,-105.62,57.2,10.29
Elk Grove,1,US,1547319480,85,38.41,-121.37,57.92,2.82
Tura,0,IN,1547319726,80,25.52,90.21,51.6,2.37
Hamilton,40,BM,1547319300,63,32.3,-64.78,64.4,9.17
Terrace,90,CA,1547320980,100,54.52,-128.61,32.0,6.93
Gurupi,36,BR,1547321306,63,-11.73,-49.07,88.55,9.64
Dudinka,36,RU,1547321306,0,69.41,86.18,-34.98,20.27
Port Hardy,75,CA,1547319600,76,50.7,-127.42,48.2,21.92
Portland,20,US,1547319180,62,45.52,-122.67,50.0,5.82
Yumen,8,CN,1547321307,52,40.29,97.04,-3.21,2.71
Porto Murtinho,20,BR,1547321307,75,-21.7,-57.88,90.66,6.62
Labuhan,76,ID,1547321307,96,-2.54,115.51,73.43,1.7
Zaigrayevo,8,RU,1547319600,83,51.83,108.27,-13.01,2.26
Sagaing,0,MM,1547321182,88,21.88,95.98,61.59,4.16
Volga,90,US,1547319360,80,44.32,-96.93,29.3,5.82
Killybegs,90,IE,1547317800,93,54.63,-8.45,50.0,24.16
Altamira,40,BR,1547316000,59,-3.2,-52.21,89.6,10.29
Churapcha,12,RU,1547321309,0,62.0,132.43,-38.99,1.59
Samarina,8,RU,1547319600,92,57.89,27.81,26.6,4.47
Manono,80,CD,1547321310,89,-7.3,27.4,73.88,5.06
Lichinga,92,MZ,1547321310,96,-13.3,35.25,68.7,2.93
Bundaberg,56,AU,1547319600,88,-24.87,152.35,68.0,6.93
Sawakin,20,SD,1547319600,61,19.1,37.33,78.8,4.7
Buala,48,SB,1547319591,99,-8.15,159.59,79.95,5.73
Tateyama,80,JP,1547321311,100,36.66,137.31,28.97,0.81
Kajaani,90,FI,1547319000,79,64.22,27.73,23.0,11.41
Yerbogachen,24,RU,1547321312,40,61.28,108.01,-13.11,3.6
Okhotsk,0,RU,1547321312,100,59.36,143.24,-8.3,8.52
Narsaq,75,GL,1547315400,69,60.91,-46.05,33.8,4.7
Roanoke Rapids,40,US,1547320800,69,36.46,-77.65,40.1,6.73
Mabaruma,8,GY,1547321313,67,8.2,-59.78,83.24,8.86
Coihaique,20,CL,1547319600,41,-45.58,-72.07,59.0,4.7
Maamba,44,ZM,1547321313,75,-17.36,27.22,76.94,2.59
Visnes,75,NO,1547319000,87,59.36,5.22,44.6,19.46
Opole Lubelskie,90,PL,1547319600,86,51.15,21.97,33.8,11.41
Bony,90,FR,1547319600,93,49.99,3.22,46.4,10.29
Umm Lajj,32,SA,1547321314,99,25.02,37.27,70.73,6.51
Mandalgovi,0,MN,1547320822,54,45.76,106.27,-7.85,3.04
Leh,56,IN,1547321314,64,34.16,77.58,-7.71,1.59
Nicoya,20,CR,1547319600,45,10.15,-85.45,87.8,12.75
Bilsanda,12,IN,1547321315,86,28.25,79.95,52.5,2.71
Khandyga,20,RU,1547321315,0,62.65,135.58,-39.71,2.37
Virginia Beach,90,US,1547319540,50,36.85,-75.98,44.06,3.36
Boras,90,SE,1547319000,100,57.72,12.94,30.2,3.36
Lac du Bonnet,76,CA,1547321316,85,50.25,-96.06,18.12,8.63
Ust-Maya,24,RU,1547321316,0,60.42,134.54,-34.53,2.59
Natal,40,BR,1547319600,74,-5.81,-35.21,82.4,19.46
Burriana,0,ES,1547319600,100,39.89,-0.08,42.8,8.05
Elat,56,CM,1547321317,73,2.91,11.16,76.94,3.71
Carballo,90,ES,1547319600,71,43.21,-8.69,50.0,9.17
Valle de Allende,0,MX,1547320917,56,26.94,-105.39,56.64,5.73
Ayan,92,TR,1547321318,100,40.67,33.6,32.48,2.26
Kutum,0,SD,1547321318,60,14.2,24.66,61.1,3.38
Merrill,1,US,1547319180,64,42.03,-121.6,39.92,5.82
Kurilsk,44,RU,1547321318,100,45.23,147.88,27.8,20.49
Pangai,40,TO,1547316000,83,-19.8,-174.35,78.8,14.99
Cherskiy,56,RU,1547319058,51,68.75,161.3,-17.3,1.92
Buenos Aires,20,AR,1547319600,57,-34.61,-58.44,82.4,8.05
Pombas,48,BR,1547321320,67,-15.9,-54.74,87.83,3.49
Balakovo,80,RU,1547321320,92,52.02,47.82,31.13,14.34
Lebowakgomo,20,ZA,1547319600,56,-24.3,29.54,75.2,14.99
Savonlinna,0,FI,1547319000,85,61.87,28.88,21.2,11.41
Boa Vista,75,BR,1547319600,41,2.82,-60.67,91.4,9.17
Salto del Guaira,8,PY,1547321322,59,-24.06,-54.31,93.0,5.17
Skibbereen,75,IE,1547319600,93,51.55,-9.27,48.2,10.29
Ermelo,75,NL,1547319300,93,52.3,5.62,46.4,9.17
Boende,32,CD,1547321322,70,-0.28,20.88,81.53,4.27
Saint-Augustin,75,FR,1547319600,93,44.83,-0.61,42.8,4.7
Pangody,80,RU,1547321323,74,65.85,74.49,-6.59,20.71
Ilhabela,36,BR,1547321323,100,-23.78,-45.36,79.37,8.19
Rabaul,12,PG,1547321323,100,-4.2,152.17,78.92,2.26
Ushtobe,0,KZ,1547321324,55,45.25,77.98,5.79,2.59
Orizona,0,BR,1547321324,77,-17.03,-48.3,84.45,4.83
Amga,44,RU,1547321324,44,60.89,131.98,-28.1,2.59
Rome,0,IT,1547319000,55,41.89,12.48,39.2,2.24
Morro Bay,90,US,1547319360,68,35.37,-120.85,60.08,3.71
Petropavlovsk-Kamchatskiy,88,RU,1547319600,58,53.05,158.65,30.2,11.18
Bonavista,12,CA,1547321325,94,48.65,-53.11,31.94,18.48
Wanaka,92,NZ,1547321325,86,-44.7,169.14,39.77,2.59
Sorong,44,ID,1547321326,100,-0.86,131.25,82.07,7.4
Diplo,0,PK,1547321326,82,24.47,69.59,59.39,8.75
Agirish,64,RU,1547321326,83,61.92,63.02,7.32,8.08
Bireun,24,ID,1547321326,100,5.2,96.7,80.94,7.63
Srednekolymsk,88,RU,1547321327,31,67.46,153.71,-21.21,3.04
